[
    {
        "id": "c5e14fdd-882f-4d65-be32-fadabd19a465",
        "name": "Location 1",
        "latitude": 18.43662729,
        "longitude": 79.12405653,
        "address": "2-7-922 Geetha Bhavan Mukrampura Karimnagar",
        "status": "Active"
    },
    {
        "id": "f1888aeb-3c01-462c-8168-439e30aaf682",
        "name": "Location 2",
        "latitude": 18.43912345,
        "longitude": 79.12678901,
        "address": "Near Karimnagar Bus Stand",
        "status": "Inactive"
    },
    {
        "id": "10721c1a-b859-469b-a316-902a41c6c8cc",
        "name": "Location 3",
        "latitude": 18.43245678,
        "longitude": 79.12234567,
        "address": "Karimnagar Park",
        "status": "Active"
    },
    {
        "id": "1b18b3d0-1edd-4fa6-9c68-e7116ab57576",
        "name": "Location 4",
        "latitude": 18.43456789,
        "longitude": 79.12789012,
        "address": "Karimnagar Market",
        "status": "Active"
    },
    {
        "id": "eecbfb11-85ad-4eab-95cb-21682f1b7351",
        "name": "Location 5",
        "latitude": 18.43123456,
        "longitude": 79.12012345,
        "address": "Karimnagar Hospital",
        "status": "Inactive"
    },
    {
        "id": "03119322-9589-495c-b1a8-de2fb4439764",
        "name": "Location 6",
        "latitude": 18.43789012,
        "longitude": 79.12345678,
        "address": "Karimnagar School",
        "status": "Active"
    },
    {
        "id": "cd442600-dd12-454a-a777-812a0e78fff6",
        "name": "Location 7",
        "latitude": 18.43567890,
        "longitude": 79.12567890,
        "address": "Karimnagar Library",
        "status": "Inactive"
    },
    {
        "id": "e015e6ba-91af-4052-8e4f-73838ea45b77",
        "name": "Location 8",
        "latitude": 18.43890123,
        "longitude": 79.12890123,
        "address": "Karimnagar Mall",
        "status": "Active"
    },
    {
        "id": "7624356c-618c-43ce-a0bd-4453e5b688c8",
        "name": "Location 9",
        "latitude": 18.43345678,
        "longitude": 79.12123456,
        "address": "Karimnagar University",
        "status": "Active"
    },
    {
        "id": "865bbb24-d720-4bec-aedb-51091ff767b8",
        "name": "Location 10",
        "latitude": 18.43012345,
        "longitude": 79.11901234,
        "address": "Karimnagar Museum",
        "status": "Inactive"
    },
    {
        "id": "a19b74f3-3b6a-4bcd-9d19-453a7f8d2e7f",
        "name": "Location 11",
        "latitude": 18.42987654,
        "longitude": 79.11876543,
        "address": "Karimnagar Stadium",
        "status": "Active"
    },
    {
        "id": "b2d3a6c4-7f2a-4fb8-9f6d-7f4b2f3c7d2e",
        "name": "Location 12",
        "latitude": 18.42876543,
        "longitude": 79.11765432,
        "address": "Karimnagar Zoo",
        "status": "Inactive"
    },
    {
        "id": "c3e48a7f-2c4e-4fb7-8b6e-7f5a3c8d2e1f",
        "name": "Location 13",
        "latitude": 18.42765432,
        "longitude": 79.11654321,
        "address": "Karimnagar Theater",
        "status": "Active"
    },
    {
        "id": "d4f58b90-5d3f-4fb6-9c5e-8f6a4c9d3f2f",
        "name": "Location 14",
        "latitude": 18.42654321,
        "longitude": 79.11543210,
        "address": "Karimnagar Lake",
        "status": "Inactive"
    },
    {
        "id": "e5g69c01-6e4g-5hc7-9d7e-9f7b5d4e0g3h",
        "name": "Location 15",
        "latitude": 18.42543210,
        "longitude": 79.11432109,
        "address": "Karimnagar Temple",
        "status": "Active"
    },
    {
        "id": "f6h70d12-7f5h-6id8-9e8f-0g8c6e5f1i4j",
        "name": "Location 16",
        "latitude": 18.42432109,
        "longitude": 79.11321098,
        "address": "Karimnagar Garden",
        "status": "Inactive"
    },
    {
        "id": "g7i81e23-8g6i-7je9-9f9g-1h9d7f6g2j5k",
        "name": "Location 17",
        "latitude": 18.42321098,
        "longitude": 79.11210987,
        "address": "Karimnagar Plaza",
        "status": "Active"
    },
    {
        "id": "h8j92f34-9h7j-8kf0-0g0h-2i0e8g7h3k6l",
        "name": "Location 18",
        "latitude": 18.42210987,
        "longitude": 79.11109876,
        "address": "Karimnagar Tower",
        "status": "Inactive"
    },
    {
        "id": "i9k03g45-0i8k-9lg1-1h1i-3j1f9h8i4l7m",
        "name": "Location 19",
        "latitude": 18.42109876,
        "longitude": 79.11098765,
        "address": "Karimnagar Court",
        "status": "Active"
    },
    {
        "id": "j0l14h56-1j9l-0mh2-2i2j-4k2g0i9j5m8n",
        "name": "Location 20",
        "latitude": 18.42098765,
        "longitude": 79.10987654,
        "address": "Karimnagar Station",
        "status": "Inactive"
    }
]
